[
    {
        "name": "Chute Neigette, QC",
        "lat": 48.43819,
        "lon": -68.31705,
        "climbs": 4,
        "country": "Canada",
        "distance": 558.54
    },
    {
        "name": "La montagne à Coton, QC",
        "lat": 47.5411,
        "lon": -69.81121,
        "climbs": 29,
        "country": "Canada",
        "distance": 390.33
    },
    {
        "name": "La Pocatiere, QC",
        "lat": 47.34334,
        "lon": -70.0242,
        "climbs": 8,
        "country": "Canada",
        "distance": 367.17
    },
    {
        "name": "Mont-Carmel, QC",
        "lat": 47.42554,
        "lon": -69.89976,
        "climbs": 16,
        "country": "Canada",
        "distance": 381.47
    },
    {
        "name": "Saint-Andre-de-Kamouraska, QC",
        "lat": 47.65207,
        "lon": -69.74538,
        "climbs": 131,
        "country": "Canada",
        "distance": 410.31
    },
    {
        "name": "Cap Trinité, QC",
        "lat": 48.30087,
        "lon": -70.33579,
        "climbs": 17,
        "country": "Canada",
        "distance": 520.7
    },
    {
        "name": "Chicoutimi, QC",
        "lat": 48.42245,
        "lon": -71.06178,
        "climbs": 71,
        "country": "Canada",
        "distance": 457.69
    },
    {
        "name": "Jonquière, QC",
        "lat": 48.41052,
        "lon": -71.27198,
        "climbs": 49,
        "country": "Canada",
        "distance": 468.99
    },
    {
        "name": "La Baie, QC",
        "lat": 48.35584,
        "lon": -70.86264,
        "climbs": 11,
        "country": "Canada",
        "distance": 473.81
    },
    {
        "name": "Le Paradis, QC",
        "lat": 48.20391,
        "lon": -70.15467,
        "climbs": 10,
        "country": "Canada",
        "distance": 491.85
    },
    {
        "name": "Baie-St-Paul, QC",
        "lat": 47.42675,
        "lon": -70.45581,
        "climbs": 4,
        "country": "Canada",
        "distance": 353.81
    },
    {
        "name": "Cap Blanc - Pointe-au-Pic, QC",
        "lat": 47.62587,
        "lon": -70.14125,
        "climbs": 14,
        "country": "Canada",
        "distance": 401.18
    },
    {
        "name": "Hautes-Gorges-de-la-Rivière-Malbaie, QC",
        "lat": 47.85899,
        "lon": -70.42786,
        "climbs": 12,
        "country": "Canada",
        "distance": 419.15
    },
    {
        "name": "Palissades de Charlevoix, QC",
        "lat": 47.89537,
        "lon": -69.9891,
        "climbs": 38,
        "country": "Canada",
        "distance": 442.05
    },
    {
        "name": "Lac Long, QC",
        "lat": 46.81285,
        "lon": -72.10098,
        "climbs": 168,
        "country": "Canada",
        "distance": 217.85
    },
    {
        "name": "St-Alban, QC",
        "lat": 46.7098,
        "lon": -72.07932,
        "climbs": 24,
        "country": "Canada",
        "distance": 203.51
    },
    {
        "name": "Vallée du  Bras-du-Nord, QC",
        "lat": 46.92895,
        "lon": -71.81865,
        "climbs": 62,
        "country": "Canada",
        "distance": 254.93
    },
    {
        "name": "Anse Gingras, QC",
        "lat": 46.74038,
        "lon": -71.2961,
        "climbs": 4,
        "country": "Canada",
        "distance": 239.52
    },
    {
        "name": "Champlain, QC",
        "lat": 46.74882,
        "lon": -71.29385,
        "climbs": 34,
        "country": "Canada",
        "distance": 244.73
    },
    {
        "name": "Crapaud de mer, QC",
        "lat": 46.74899,
        "lon": -71.3011,
        "climbs": 22,
        "country": "Canada",
        "distance": 241.68
    },
    {
        "name": "Mont Wright, QC",
        "lat": 47.00855,
        "lon": -71.34974,
        "climbs": 75,
        "country": "Canada",
        "distance": 276.86
    },
    {
        "name": "Place Jean-Béliveau - OnSite Urban Boulder, QC",
        "lat": 46.8274,
        "lon": -71.24628,
        "climbs": 18,
        "country": "Canada",
        "distance": 257.26
    },
    {
        "name": "Pylône, QC",
        "lat": 46.75011,
        "lon": -71.29653,
        "climbs": 32,
        "country": "Canada",
        "distance": 245.09
    },
    {
        "name": "Sainte-Catherine de la Jacques Cartier, QC",
        "lat": 46.80698,
        "lon": -71.56026,
        "climbs": 27,
        "country": "Canada",
        "distance": 253.92
    },
    {
        "name": "Val-Bélair (Closed), QC",
        "lat": 46.85118,
        "lon": -71.51071,
        "climbs": 61,
        "country": "Canada",
        "distance": 265.78
    },
    {
        "name": "Vieux-Stoneham (Closed), QC",
        "lat": 47.02722,
        "lon": -71.34756,
        "climbs": 31,
        "country": "Canada",
        "distance": 279.54
    },
    {
        "name": "Parc de l'île Melville, QC",
        "lat": 46.52799,
        "lon": -72.76303,
        "climbs": 19,
        "country": "Canada",
        "distance": 165.68
    },
    {
        "name": "Site d'escalade de Trois-Rives, QC",
        "lat": 47.09538,
        "lon": -72.91848,
        "climbs": 90,
        "country": "Canada",
        "distance": 245.47
    },
    {
        "name": "Lac Larouche, QC",
        "lat": 45.47604,
        "lon": -72.17552,
        "climbs": 28,
        "country": "Canada",
        "distance": 132.24
    },
    {
        "name": "Mont Pinacle, QC",
        "lat": 45.03688,
        "lon": -71.90897,
        "climbs": 50,
        "country": "Canada",
        "distance": 165.38
    },
    {
        "name": "Mount Orford (Pic aux Corbeaux), QC",
        "lat": 45.29387,
        "lon": -72.22846,
        "climbs": 86,
        "country": "Canada",
        "distance": 117.23
    },
    {
        "name": "Olympic Stadium - OnSite Urban Boulders, QC",
        "lat": 45.55452,
        "lon": -73.55348,
        "climbs": 25,
        "country": "Canada",
        "distance": 8.03
    },
    {
        "name": "Parc des Hirondelles - OnSite Urban Boulders Climbing, QC",
        "lat": 45.57587,
        "lon": -73.64494,
        "climbs": 32,
        "country": "Canada",
        "distance": 13.65
    },
    {
        "name": "Île Ste-Hélène, QC",
        "lat": 45.5201,
        "lon": -73.53556,
        "climbs": 45,
        "country": "Canada",
        "distance": 5.71
    },
    {
        "name": "LoneStar, QC",
        "lat": 45.67165,
        "lon": -74.97326,
        "climbs": 19,
        "country": "Canada",
        "distance": 127.76
    },
    {
        "name": "Rocher du Capitaine, QC",
        "lat": 45.66656,
        "lon": -74.96398,
        "climbs": 19,
        "country": "Canada",
        "distance": 126.81
    },
    {
        "name": "Rocher du Capitaine Bouldering, QC",
        "lat": 45.66656,
        "lon": -74.96398,
        "climbs": 9,
        "country": "Canada",
        "distance": 126.81
    },
    {
        "name": "Blocs de la fonderie, QC",
        "lat": 48.26423,
        "lon": -78.98854,
        "climbs": 6,
        "country": "Canada",
        "distance": 626.67
    },
    {
        "name": "Cap des Couleurs, QC",
        "lat": 48.22622,
        "lon": -79.01424,
        "climbs": 21,
        "country": "Canada",
        "distance": 623.42
    },
    {
        "name": "Chìkebana (La Grotte), QC",
        "lat": 47.33764,
        "lon": -79.43063,
        "climbs": 27,
        "country": "Canada",
        "distance": 660.54
    },
    {
        "name": "Guidou, QC",
        "lat": 48.38377,
        "lon": -79.31458,
        "climbs": 61,
        "country": "Canada",
        "distance": 664.77
    },
    {
        "name": "Kékéko, QC",
        "lat": 48.1715,
        "lon": -79.14854,
        "climbs": 69,
        "country": "Canada",
        "distance": 637.88
    },
    {
        "name": "La Griffe, QC",
        "lat": 48.18685,
        "lon": -79.26872,
        "climbs": 6,
        "country": "Canada",
        "distance": 650.75
    },
    {
        "name": "Paroi des 3 Lacs, QC",
        "lat": 48.3416,
        "lon": -78.39911,
        "climbs": 10,
        "country": "Canada",
        "distance": 593.89
    },
    {
        "name": "Baie des Tous Nus, QC",
        "lat": 50.07764,
        "lon": -66.73074,
        "climbs": 7,
        "country": "Canada",
        "distance": 847.44
    },
    {
        "name": "Chûte de Sault-Au-Mouton, QC",
        "lat": 48.55178,
        "lon": -69.24778,
        "climbs": 5,
        "country": "Canada",
        "distance": 535.66
    },
    {
        "name": "La Jonction, QC",
        "lat": 49.25114,
        "lon": -68.15965,
        "climbs": 13,
        "country": "Canada",
        "distance": 670.58
    },
    {
        "name": "Lac Malfait, QC",
        "lat": 49.29854,
        "lon": -68.18193,
        "climbs": 8,
        "country": "Canada",
        "distance": 677.89
    },
    {
        "name": "Baie au Chêne, QC",
        "lat": 48.05665,
        "lon": -66.66389,
        "climbs": 28,
        "country": "Canada",
        "distance": 746.4
    },
    {
        "name": "Grand Morne, QC",
        "lat": 46.1342,
        "lon": -71.0999,
        "climbs": 65,
        "country": "Canada",
        "distance": 250.33
    },
    {
        "name": "Rocher de la chapelle, QC",
        "lat": 46.94402,
        "lon": -70.58201,
        "climbs": 5,
        "country": "Canada",
        "distance": 301.16
    },
    {
        "name": "Saint-Leon De Standon, QC",
        "lat": 46.44771,
        "lon": -70.6049,
        "climbs": 12,
        "country": "Canada",
        "distance": 336.05
    },
    {
        "name": "Les Contreforts, QC",
        "lat": 46.26462,
        "lon": -73.9553,
        "climbs": 89,
        "country": "Canada",
        "distance": 124.05
    },
    {
        "name": "Montagne du Tranchant, QC",
        "lat": 46.2899,
        "lon": -73.85517,
        "climbs": 54,
        "country": "Canada",
        "distance": 118.41
    },
    {
        "name": "Proximus, QC",
        "lat": 46.35495,
        "lon": -73.67154,
        "climbs": 23,
        "country": "Canada",
        "distance": 120.5
    },
    {
        "name": "Saint-Alphonse-Rodriguez, QC",
        "lat": 46.23248,
        "lon": -73.72561,
        "climbs": 178,
        "country": "Canada",
        "distance": 100.77
    },
    {
        "name": "Saint-Côme Centre-Ville, QC",
        "lat": 46.28506,
        "lon": -73.78472,
        "climbs": 33,
        "country": "Canada",
        "distance": 112.01
    },
    {
        "name": "Sérénité, QC",
        "lat": 46.3623,
        "lon": -73.67928,
        "climbs": 27,
        "country": "Canada",
        "distance": 121.68
    },
    {
        "name": "Attitude Montagne, QC",
        "lat": 45.99961,
        "lon": -74.30487,
        "climbs": 46,
        "country": "Canada",
        "distance": 98.56
    },
    {
        "name": "Baldy, QC",
        "lat": 45.97204,
        "lon": -74.13704,
        "climbs": 63,
        "country": "Canada",
        "distance": 82.93
    },
    {
        "name": "Belle neige station de ski, QC",
        "lat": 46.00047,
        "lon": -74.21975,
        "climbs": 19,
        "country": "Canada",
        "distance": 87.86
    },
    {
        "name": "Cap des Pères, QC",
        "lat": 46.20944,
        "lon": -74.48492,
        "climbs": 11,
        "country": "Canada",
        "distance": 129.33
    },
    {
        "name": "Julien-Labedan, QC",
        "lat": 46.16911,
        "lon": -74.42801,
        "climbs": 38,
        "country": "Canada",
        "distance": 118.34
    },
    {
        "name": "Kanata Tremblant, QC",
        "lat": 45.99765,
        "lon": -74.73777,
        "climbs": 26,
        "country": "Canada",
        "distance": 127.1
    },
    {
        "name": "Lac Boisseau, QC",
        "lat": 46.17587,
        "lon": -74.80672,
        "climbs": 39,
        "country": "Canada",
        "distance": 148.18
    },
    {
        "name": "Lac Gervais (Mont La Tuque), QC",
        "lat": 46.27075,
        "lon": -74.68674,
        "climbs": 52,
        "country": "Canada",
        "distance": 150.43
    },
    {
        "name": "Laurentides du Nord, QC",
        "lat": 46.63749,
        "lon": -75.1795,
        "climbs": 23,
        "country": "Canada",
        "distance": 231.21
    },
    {
        "name": "Mont Jonathan, QC",
        "lat": 46.0534,
        "lon": -74.51356,
        "climbs": 3,
        "country": "Canada",
        "distance": 127.99
    },
    {
        "name": "Montagne d'Argent, QC",
        "lat": 46.1271,
        "lon": -74.67974,
        "climbs": 150,
        "country": "Canada",
        "distance": 135.57
    },
    {
        "name": "Parc régional du poisson Blanc, QC",
        "lat": 46.09445,
        "lon": -75.67397,
        "climbs": 58,
        "country": "Canada",
        "distance": 239.82
    },
    {
        "name": "Val-David, QC",
        "lat": 46.028,
        "lon": -74.2002,
        "climbs": 549,
        "country": "Canada",
        "distance": 90.06
    },
    {
        "name": "Weir, QC",
        "lat": 45.94655,
        "lon": -74.53372,
        "climbs": 130,
        "country": "Canada",
        "distance": 106.37
    },
    {
        "name": "Mont Rigaud, QC",
        "lat": 45.4683,
        "lon": -74.33952,
        "climbs": 120,
        "country": "Canada",
        "distance": 70.96
    }
]