[
    {
        "name": "Boone Run, US",
        "lat": 41.67514,
        "lon": -77.07595,
        "climbs": 19,
        "country": "USA",
        "distance": 628.54
    },
    {
        "name": "Donation Rocks, US",
        "lat": 40.57285,
        "lon": -77.9437,
        "climbs": 41,
        "country": "USA",
        "distance": 818.53
    },
    {
        "name": "Eversince Area, US",
        "lat": 40.72808,
        "lon": -77.88517,
        "climbs": 11,
        "country": "USA",
        "distance": 788.79
    },
    {
        "name": "Rock Run, US",
        "lat": 41.5085,
        "lon": -76.934,
        "climbs": 38,
        "country": "USA",
        "distance": 658.73
    },
    {
        "name": "Route 15 Fern Garden, US",
        "lat": 41.63633,
        "lon": -77.11501,
        "climbs": 5,
        "country": "USA",
        "distance": 634.28
    },
    {
        "name": "Shingletown Gap, US",
        "lat": 40.75183,
        "lon": -77.82027,
        "climbs": 7,
        "country": "USA",
        "distance": 783.5
    },
    {
        "name": "State Game Lands 12 & 36, US",
        "lat": 41.65384,
        "lon": -76.65636,
        "climbs": 14,
        "country": "USA",
        "distance": 635.69
    },
    {
        "name": "Sunfish Pond County Park, US",
        "lat": 41.64351,
        "lon": -76.69677,
        "climbs": 24,
        "country": "USA",
        "distance": 639.45
    },
    {
        "name": "Archbald Pothole State Park, US",
        "lat": 41.51214,
        "lon": -75.57422,
        "climbs": 5,
        "country": "USA",
        "distance": 602.59
    },
    {
        "name": "Bauer Rock (South Mountain), US",
        "lat": 40.5682,
        "lon": -75.4358,
        "climbs": 58,
        "country": "USA",
        "distance": 692.78
    },
    {
        "name": "Delaware Water Gap (PA), US",
        "lat": 40.97987,
        "lon": -75.13779,
        "climbs": 83,
        "country": "USA",
        "distance": 652.06
    },
    {
        "name": "Lehigh Gorge State Park, US",
        "lat": 40.88349,
        "lon": -75.76019,
        "climbs": 20,
        "country": "USA",
        "distance": 689.54
    },
    {
        "name": "Mocanaqua (aka Shickshinny), US",
        "lat": 41.1472,
        "lon": -76.14462,
        "climbs": 110,
        "country": "USA",
        "distance": 701.42
    },
    {
        "name": "Nay Aug Park, US",
        "lat": 41.4019,
        "lon": -75.639,
        "climbs": 13,
        "country": "USA",
        "distance": 611.0
    },
    {
        "name": "Ricketts Glen State Park, US",
        "lat": 41.3354,
        "lon": -76.30144,
        "climbs": 10,
        "country": "USA",
        "distance": 667.69
    },
    {
        "name": "White Deer Lake Bouldering, US",
        "lat": 41.41127,
        "lon": -75.13259,
        "climbs": 10,
        "country": "USA",
        "distance": 593.78
    },
    {
        "name": "Beartown Rocks, US",
        "lat": 41.3035,
        "lon": -79.05979,
        "climbs": 28,
        "country": "USA",
        "distance": 838.5
    },
    {
        "name": "Deer Rock, US",
        "lat": 41.32448,
        "lon": -79.57833,
        "climbs": 11,
        "country": "USA",
        "distance": 854.05
    },
    {
        "name": "Eagle Rock Ridge Boulders, US",
        "lat": 41.45756,
        "lon": -79.56766,
        "climbs": 5,
        "country": "USA",
        "distance": 837.5
    },
    {
        "name": "Kennedy's Mill, US",
        "lat": 40.9918,
        "lon": -80.1844,
        "climbs": 7,
        "country": "USA",
        "distance": 902.53
    },
    {
        "name": "McConnells Mill State Park, US",
        "lat": 40.9578,
        "lon": -80.1688,
        "climbs": 97,
        "country": "USA",
        "distance": 907.37
    },
    {
        "name": "Rim Rock, US",
        "lat": 41.8434,
        "lon": -78.9465,
        "climbs": 8,
        "country": "USA",
        "distance": 758.94
    },
    {
        "name": "Rim Rock Bouldering, US",
        "lat": 41.84407,
        "lon": -78.9458,
        "climbs": 7,
        "country": "USA",
        "distance": 758.95
    },
    {
        "name": "Asphalt Boulder, US",
        "lat": 40.05778,
        "lon": -77.295,
        "climbs": 7,
        "country": "USA",
        "distance": 887.46
    },
    {
        "name": "Bilger's Rocks, US",
        "lat": 40.9939,
        "lon": -78.61269,
        "climbs": 47,
        "country": "USA",
        "distance": 846.72
    },
    {
        "name": "Boxcar Rocks (Chinese Wall), US",
        "lat": 40.5445,
        "lon": -76.5356,
        "climbs": 33,
        "country": "USA",
        "distance": 781.44
    },
    {
        "name": "Chickies Rock, US",
        "lat": 40.05805,
        "lon": -76.5314,
        "climbs": 59,
        "country": "USA",
        "distance": 819.27
    },
    {
        "name": "Dauphin Narrows, US",
        "lat": 40.352,
        "lon": -76.9151,
        "climbs": 17,
        "country": "USA",
        "distance": 835.55
    },
    {
        "name": "Echo Valley, US",
        "lat": 40.59858,
        "lon": -76.41284,
        "climbs": 10,
        "country": "USA",
        "distance": 770.85
    },
    {
        "name": "Gettysburg, US",
        "lat": 39.78454,
        "lon": -77.24414,
        "climbs": 18,
        "country": "USA",
        "distance": 905.09
    },
    {
        "name": "Gifford Pinchot State Park, US",
        "lat": 40.08066,
        "lon": -76.87011,
        "climbs": 23,
        "country": "USA",
        "distance": 859.29
    },
    {
        "name": "Governor Dick Park (aka Mount Gretna), US",
        "lat": 40.23758,
        "lon": -76.45891,
        "climbs": 269,
        "country": "USA",
        "distance": 848.16
    },
    {
        "name": "Governor Stable, US",
        "lat": 40.13189,
        "lon": -76.69516,
        "climbs": 157,
        "country": "USA",
        "distance": 844.95
    },
    {
        "name": "Hammond Rocks, US",
        "lat": 40.06812,
        "lon": -77.24859,
        "climbs": 7,
        "country": "USA",
        "distance": 891.56
    },
    {
        "name": "Pond Bank, US",
        "lat": 39.86593,
        "lon": -77.52477,
        "climbs": 91,
        "country": "USA",
        "distance": 919.54
    },
    {
        "name": "Rocky Ridge, US",
        "lat": 40.01214,
        "lon": -76.651,
        "climbs": 91,
        "country": "USA",
        "distance": 836.23
    },
    {
        "name": "Safe Harbor, US",
        "lat": 39.93461,
        "lon": -76.38523,
        "climbs": 413,
        "country": "USA",
        "distance": 817.67
    },
    {
        "name": "Shaffer Rocks (The Hermitage), US",
        "lat": 39.8123,
        "lon": -77.4822,
        "climbs": 55,
        "country": "USA",
        "distance": 930.09
    },
    {
        "name": "Susquehanna River, Muddy Run, US",
        "lat": 39.80213,
        "lon": -76.30992,
        "climbs": 6,
        "country": "USA",
        "distance": 846.05
    },
    {
        "name": "Tumbling Run, US",
        "lat": 40.026,
        "lon": -77.3554,
        "climbs": 8,
        "country": "USA",
        "distance": 897.62
    },
    {
        "name": "Walnut Bottom, US",
        "lat": 40.0641,
        "lon": -77.3715,
        "climbs": 7,
        "country": "USA",
        "distance": 891.68
    },
    {
        "name": "Whiskey Springs, US",
        "lat": 40.0959,
        "lon": -77.1326,
        "climbs": 24,
        "country": "USA",
        "distance": 874.37
    },
    {
        "name": "White Rock Acres, US",
        "lat": 40.13197,
        "lon": -77.08831,
        "climbs": 8,
        "country": "USA",
        "distance": 870.34
    },
    {
        "name": "Woodcock Valley, US",
        "lat": 40.16391,
        "lon": -78.2934,
        "climbs": 9,
        "country": "USA",
        "distance": 887.47
    },
    {
        "name": "Birdsboro Quarry, US",
        "lat": 40.2539,
        "lon": -75.8139,
        "climbs": 176,
        "country": "USA",
        "distance": 746.08
    },
    {
        "name": "Crum Woods, US",
        "lat": 39.90688,
        "lon": -75.35714,
        "climbs": 17,
        "country": "USA",
        "distance": 760.92
    },
    {
        "name": "Downingtown Boulders, US",
        "lat": 39.97735,
        "lon": -75.68242,
        "climbs": 7,
        "country": "USA",
        "distance": 786.93
    },
    {
        "name": "East Branch Brandywine Creek, US",
        "lat": 40.04135,
        "lon": -75.70738,
        "climbs": 29,
        "country": "USA",
        "distance": 776.25
    },
    {
        "name": "Eastern State Penitentiary, US",
        "lat": 39.96837,
        "lon": -75.17268,
        "climbs": 5,
        "country": "USA",
        "distance": 735.19
    },
    {
        "name": "The Edge (Closed), US",
        "lat": 40.43351,
        "lon": -75.07383,
        "climbs": 26,
        "country": "USA",
        "distance": 668.35
    },
    {
        "name": "Hay Creek Boulders, US",
        "lat": 40.23923,
        "lon": -75.83693,
        "climbs": 22,
        "country": "USA",
        "distance": 752.9
    },
    {
        "name": "Haycock Mountain (Nockamixon), US",
        "lat": 40.49876,
        "lon": -75.22871,
        "climbs": 266,
        "country": "USA",
        "distance": 684.46
    },
    {
        "name": "The Narrows, US",
        "lat": 40.5634,
        "lon": -75.15969,
        "climbs": 17,
        "country": "USA",
        "distance": 663.49
    },
    {
        "name": "Philly, US",
        "lat": 39.95269,
        "lon": -75.16329,
        "climbs": 232,
        "country": "USA",
        "distance": 733.94
    },
    {
        "name": "Ralph Stover State Park (High Rocks), US",
        "lat": 40.44089,
        "lon": -75.10068,
        "climbs": 98,
        "country": "USA",
        "distance": 667.45
    },
    {
        "name": "Smedley Park, US",
        "lat": 39.91984,
        "lon": -75.3616,
        "climbs": 16,
        "country": "USA",
        "distance": 763.22
    },
    {
        "name": "56 Boulders, US",
        "lat": 40.21749,
        "lon": -78.76057,
        "climbs": 31,
        "country": "USA",
        "distance": 906.8
    },
    {
        "name": "Adam Fall's Trail, US",
        "lat": 40.16044,
        "lon": -79.23155,
        "climbs": 7,
        "country": "USA",
        "distance": 955.46
    },
    {
        "name": "Breakneck, US",
        "lat": 40.03465,
        "lon": -79.54311,
        "climbs": 69,
        "country": "USA",
        "distance": 1038.37
    },
    {
        "name": "Coll's Cove Bouldering  - CLOSED TO CLIMBING, US",
        "lat": 39.93173,
        "lon": -79.54515,
        "climbs": 85,
        "country": "USA",
        "distance": 1055.33
    },
    {
        "name": "Creek Hills (Game Lands 296), US",
        "lat": 40.11206,
        "lon": -79.7042,
        "climbs": 7,
        "country": "USA",
        "distance": 1037.06
    },
    {
        "name": "Ghosttown, US",
        "lat": 40.48268,
        "lon": -79.14071,
        "climbs": 55,
        "country": "USA",
        "distance": 938.97
    },
    {
        "name": "Harrison Hills Park, US",
        "lat": 40.64633,
        "lon": -79.69613,
        "climbs": 12,
        "country": "USA",
        "distance": 961.77
    },
    {
        "name": "Jumonville, US",
        "lat": 39.90474,
        "lon": -79.6536,
        "climbs": 29,
        "country": "USA",
        "distance": 1058.2
    },
    {
        "name": "Ohiopyle State Park, US",
        "lat": 39.8693,
        "lon": -79.4938,
        "climbs": 146,
        "country": "USA",
        "distance": 1019.45
    },
    {
        "name": "Pike Run, US",
        "lat": 40.08044,
        "lon": -79.31847,
        "climbs": 37,
        "country": "USA",
        "distance": 976.14
    },
    {
        "name": "Pittsburgh, US",
        "lat": 40.44029,
        "lon": -80.01017,
        "climbs": 66,
        "country": "USA",
        "distance": 967.17
    },
    {
        "name": "The Vault - CLOSED TO CLIMBING, US",
        "lat": 39.95352,
        "lon": -79.52305,
        "climbs": 16,
        "country": "USA",
        "distance": 1057.91
    },
    {
        "name": "Washington Run Gorge (Perryopolis), US",
        "lat": 40.08874,
        "lon": -79.73033,
        "climbs": 20,
        "country": "USA",
        "distance": 1042.02
    }
]