[
    {
        "name": "La montagne à Coton, QC",
        "lat": 47.5411,
        "lon": -69.81121,
        "climbs": 29,
        "country": "Canada",
        "distance": 148.01
    },
    {
        "name": "La Pocatiere, QC",
        "lat": 47.34334,
        "lon": -70.0242,
        "climbs": 8,
        "country": "Canada",
        "distance": 124.85
    },
    {
        "name": "Mont-Carmel, QC",
        "lat": 47.42554,
        "lon": -69.89976,
        "climbs": 16,
        "country": "Canada",
        "distance": 139.15
    },
    {
        "name": "Saint-Andre-de-Kamouraska, QC",
        "lat": 47.65207,
        "lon": -69.74538,
        "climbs": 131,
        "country": "Canada",
        "distance": 167.99
    },
    {
        "name": "Cap Trinité, QC",
        "lat": 48.30087,
        "lon": -70.33579,
        "climbs": 17,
        "country": "Canada",
        "distance": 271.68
    },
    {
        "name": "Chicoutimi, QC",
        "lat": 48.42245,
        "lon": -71.06178,
        "climbs": 71,
        "country": "Canada",
        "distance": 208.67
    },
    {
        "name": "Jonquière, QC",
        "lat": 48.41052,
        "lon": -71.27198,
        "climbs": 49,
        "country": "Canada",
        "distance": 219.97
    },
    {
        "name": "La Baie, QC",
        "lat": 48.35584,
        "lon": -70.86264,
        "climbs": 11,
        "country": "Canada",
        "distance": 224.8
    },
    {
        "name": "Le Paradis, QC",
        "lat": 48.20391,
        "lon": -70.15467,
        "climbs": 10,
        "country": "Canada",
        "distance": 236.53
    },
    {
        "name": "Cap Blanc - Pointe-au-Pic, QC",
        "lat": 47.62587,
        "lon": -70.14125,
        "climbs": 14,
        "country": "Canada",
        "distance": 145.86
    },
    {
        "name": "Hautes-Gorges-de-la-Rivière-Malbaie, QC",
        "lat": 47.85899,
        "lon": -70.42786,
        "climbs": 12,
        "country": "Canada",
        "distance": 163.82
    },
    {
        "name": "Palissades de Charlevoix, QC",
        "lat": 47.89537,
        "lon": -69.9891,
        "climbs": 38,
        "country": "Canada",
        "distance": 186.73
    },
    {
        "name": "Lac Long, QC",
        "lat": 46.81285,
        "lon": -72.10098,
        "climbs": 168,
        "country": "Canada",
        "distance": 92.42
    },
    {
        "name": "St-Alban, QC",
        "lat": 46.7098,
        "lon": -72.07932,
        "climbs": 24,
        "country": "Canada",
        "distance": 78.09
    },
    {
        "name": "Vallée du  Bras-du-Nord, QC",
        "lat": 46.92895,
        "lon": -71.81865,
        "climbs": 62,
        "country": "Canada",
        "distance": 67.63
    },
    {
        "name": "Champlain, QC",
        "lat": 46.74882,
        "lon": -71.29385,
        "climbs": 34,
        "country": "Canada",
        "distance": 11.09
    },
    {
        "name": "Crapaud de mer, QC",
        "lat": 46.74899,
        "lon": -71.3011,
        "climbs": 22,
        "country": "Canada",
        "distance": 14.5
    },
    {
        "name": "Mont Wright, QC",
        "lat": 47.00855,
        "lon": -71.34974,
        "climbs": 75,
        "country": "Canada",
        "distance": 27.84
    },
    {
        "name": "Place Jean-Béliveau - OnSite Urban Boulder, QC",
        "lat": 46.8274,
        "lon": -71.24628,
        "climbs": 18,
        "country": "Canada",
        "distance": 4.19
    },
    {
        "name": "Pylône, QC",
        "lat": 46.75011,
        "lon": -71.29653,
        "climbs": 32,
        "country": "Canada",
        "distance": 11.44
    },
    {
        "name": "Sainte-Catherine de la Jacques Cartier, QC",
        "lat": 46.80698,
        "lon": -71.56026,
        "climbs": 27,
        "country": "Canada",
        "distance": 31.5
    },
    {
        "name": "Val-Bélair (Closed), QC",
        "lat": 46.85118,
        "lon": -71.51071,
        "climbs": 61,
        "country": "Canada",
        "distance": 30.2
    },
    {
        "name": "Vieux-Stoneham (Closed), QC",
        "lat": 47.02722,
        "lon": -71.34756,
        "climbs": 31,
        "country": "Canada",
        "distance": 30.52
    },
    {
        "name": "Parc de l'île Melville, QC",
        "lat": 46.52799,
        "lon": -72.76303,
        "climbs": 19,
        "country": "Canada",
        "distance": 145.66
    },
    {
        "name": "Site d'escalade de Trois-Rives, QC",
        "lat": 47.09538,
        "lon": -72.91848,
        "climbs": 90,
        "country": "Canada",
        "distance": 194.12
    },
    {
        "name": "Lac Larouche, QC",
        "lat": 45.47604,
        "lon": -72.17552,
        "climbs": 28,
        "country": "Canada",
        "distance": 224.99
    },
    {
        "name": "Mont Pinacle, QC",
        "lat": 45.03688,
        "lon": -71.90897,
        "climbs": 50,
        "country": "Canada",
        "distance": 290.89
    },
    {
        "name": "Mount Orford (Pic aux Corbeaux), QC",
        "lat": 45.29387,
        "lon": -72.22846,
        "climbs": 86,
        "country": "Canada",
        "distance": 258.78
    },
    {
        "name": "Olympic Stadium - OnSite Urban Boulders, QC",
        "lat": 45.55452,
        "lon": -73.55348,
        "climbs": 25,
        "country": "Canada",
        "distance": 249.31
    },
    {
        "name": "Parc des Hirondelles - OnSite Urban Boulders Climbing, QC",
        "lat": 45.57587,
        "lon": -73.64494,
        "climbs": 32,
        "country": "Canada",
        "distance": 262.38
    },
    {
        "name": "Île Ste-Hélène, QC",
        "lat": 45.5201,
        "lon": -73.53556,
        "climbs": 45,
        "country": "Canada",
        "distance": 249.83
    },
    {
        "name": "LoneStar, QC",
        "lat": 45.67165,
        "lon": -74.97326,
        "climbs": 19,
        "country": "Canada",
        "distance": 368.48
    },
    {
        "name": "Rocher du Capitaine, QC",
        "lat": 45.66656,
        "lon": -74.96398,
        "climbs": 19,
        "country": "Canada",
        "distance": 367.53
    },
    {
        "name": "Rocher du Capitaine Bouldering, QC",
        "lat": 45.66656,
        "lon": -74.96398,
        "climbs": 9,
        "country": "Canada",
        "distance": 367.53
    },
    {
        "name": "Blocs de la fonderie, QC",
        "lat": 48.26423,
        "lon": -78.98854,
        "climbs": 6,
        "country": "Canada",
        "distance": 867.38
    },
    {
        "name": "Cap des Couleurs, QC",
        "lat": 48.22622,
        "lon": -79.01424,
        "climbs": 21,
        "country": "Canada",
        "distance": 864.13
    },
    {
        "name": "Chìkebana (La Grotte), QC",
        "lat": 47.33764,
        "lon": -79.43063,
        "climbs": 27,
        "country": "Canada",
        "distance": 906.42
    },
    {
        "name": "Guidou, QC",
        "lat": 48.38377,
        "lon": -79.31458,
        "climbs": 61,
        "country": "Canada",
        "distance": 905.49
    },
    {
        "name": "Kékéko, QC",
        "lat": 48.1715,
        "lon": -79.14854,
        "climbs": 69,
        "country": "Canada",
        "distance": 878.59
    },
    {
        "name": "La Griffe, QC",
        "lat": 48.18685,
        "lon": -79.26872,
        "climbs": 6,
        "country": "Canada",
        "distance": 891.46
    },
    {
        "name": "Paroi des 3 Lacs, QC",
        "lat": 48.3416,
        "lon": -78.39911,
        "climbs": 10,
        "country": "Canada",
        "distance": 834.61
    },
    {
        "name": "Baie des Tous Nus, QC",
        "lat": 50.07764,
        "lon": -66.73074,
        "climbs": 7,
        "country": "Canada",
        "distance": 592.11
    },
    {
        "name": "Chûte de Sault-Au-Mouton, QC",
        "lat": 48.55178,
        "lon": -69.24778,
        "climbs": 5,
        "country": "Canada",
        "distance": 280.34
    },
    {
        "name": "La Jonction, QC",
        "lat": 49.25114,
        "lon": -68.15965,
        "climbs": 13,
        "country": "Canada",
        "distance": 415.26
    },
    {
        "name": "Lac Malfait, QC",
        "lat": 49.29854,
        "lon": -68.18193,
        "climbs": 8,
        "country": "Canada",
        "distance": 422.57
    },
    {
        "name": "Baie au Chêne, QC",
        "lat": 48.05665,
        "lon": -66.66389,
        "climbs": 28,
        "country": "Canada",
        "distance": 504.08
    },
    {
        "name": "Grand Morne, QC",
        "lat": 46.1342,
        "lon": -71.0999,
        "climbs": 65,
        "country": "Canada",
        "distance": 107.1
    },
    {
        "name": "Saint-Leon De Standon, QC",
        "lat": 46.44771,
        "lon": -70.6049,
        "climbs": 12,
        "country": "Canada",
        "distance": 116.32
    },
    {
        "name": "Les Contreforts, QC",
        "lat": 46.26462,
        "lon": -73.9553,
        "climbs": 89,
        "country": "Canada",
        "distance": 273.55
    },
    {
        "name": "Montagne du Tranchant, QC",
        "lat": 46.2899,
        "lon": -73.85517,
        "climbs": 54,
        "country": "Canada",
        "distance": 264.35
    },
    {
        "name": "Proximus, QC",
        "lat": 46.35495,
        "lon": -73.67154,
        "climbs": 23,
        "country": "Canada",
        "distance": 247.76
    },
    {
        "name": "Saint-Alphonse-Rodriguez, QC",
        "lat": 46.23248,
        "lon": -73.72561,
        "climbs": 178,
        "country": "Canada",
        "distance": 248.58
    },
    {
        "name": "Saint-Côme Centre-Ville, QC",
        "lat": 46.28506,
        "lon": -73.78472,
        "climbs": 33,
        "country": "Canada",
        "distance": 257.95
    },
    {
        "name": "Sérénité, QC",
        "lat": 46.3623,
        "lon": -73.67928,
        "climbs": 27,
        "country": "Canada",
        "distance": 248.94
    },
    {
        "name": "Attitude Montagne, QC",
        "lat": 45.99961,
        "lon": -74.30487,
        "climbs": 46,
        "country": "Canada",
        "distance": 339.28
    },
    {
        "name": "Baldy, QC",
        "lat": 45.97204,
        "lon": -74.13704,
        "climbs": 63,
        "country": "Canada",
        "distance": 323.64
    },
    {
        "name": "Belle neige station de ski, QC",
        "lat": 46.00047,
        "lon": -74.21975,
        "climbs": 19,
        "country": "Canada",
        "distance": 328.57
    },
    {
        "name": "Cap des Pères, QC",
        "lat": 46.20944,
        "lon": -74.48492,
        "climbs": 11,
        "country": "Canada",
        "distance": 370.05
    },
    {
        "name": "Julien-Labedan, QC",
        "lat": 46.16911,
        "lon": -74.42801,
        "climbs": 38,
        "country": "Canada",
        "distance": 359.06
    },
    {
        "name": "Kanata Tremblant, QC",
        "lat": 45.99765,
        "lon": -74.73777,
        "climbs": 26,
        "country": "Canada",
        "distance": 367.81
    },
    {
        "name": "Lac Boisseau, QC",
        "lat": 46.17587,
        "lon": -74.80672,
        "climbs": 39,
        "country": "Canada",
        "distance": 388.9
    },
    {
        "name": "Lac Gervais (Mont La Tuque), QC",
        "lat": 46.27075,
        "lon": -74.68674,
        "climbs": 52,
        "country": "Canada",
        "distance": 391.15
    },
    {
        "name": "Laurentides du Nord, QC",
        "lat": 46.63749,
        "lon": -75.1795,
        "climbs": 23,
        "country": "Canada",
        "distance": 471.93
    },
    {
        "name": "Montagne d'Argent, QC",
        "lat": 46.1271,
        "lon": -74.67974,
        "climbs": 150,
        "country": "Canada",
        "distance": 376.28
    },
    {
        "name": "Parc régional du poisson Blanc, QC",
        "lat": 46.09445,
        "lon": -75.67397,
        "climbs": 58,
        "country": "Canada",
        "distance": 480.53
    },
    {
        "name": "Val-David, QC",
        "lat": 46.028,
        "lon": -74.2002,
        "climbs": 549,
        "country": "Canada",
        "distance": 330.77
    },
    {
        "name": "Weir, QC",
        "lat": 45.94655,
        "lon": -74.53372,
        "climbs": 130,
        "country": "Canada",
        "distance": 347.08
    },
    {
        "name": "Mont Rigaud, QC",
        "lat": 45.4683,
        "lon": -74.33952,
        "climbs": 120,
        "country": "Canada",
        "distance": 337.29
    }
]