[
    {
        "name": "Algoma Riverside Cliffs, ON",
        "lat": 46.46054,
        "lon": -83.24397,
        "climbs": 26,
        "country": "Canada",
        "distance": 1145.8
    },
    {
        "name": "Kenora, ON",
        "lat": 49.767,
        "lon": -94.4894,
        "climbs": 31,
        "country": "Canada",
        "distance": 2288.94
    },
    {
        "name": "The Nooks Boulders, ON",
        "lat": 46.61064,
        "lon": -82.89799,
        "climbs": 136,
        "country": "Canada",
        "distance": 1135.23
    },
    {
        "name": "Sudbury Area, ON",
        "lat": 46.49338,
        "lon": -80.99048,
        "climbs": 66,
        "country": "Canada",
        "distance": 926.42
    },
    {
        "name": "Thunder Bay Region Rock, ON",
        "lat": 48.411,
        "lon": -89.2529,
        "climbs": 368,
        "country": "Canada",
        "distance": 1820.58
    },
    {
        "name": "Adam and Eve Rocks, ON",
        "lat": 44.55305,
        "lon": -78.35362,
        "climbs": 6,
        "country": "Canada",
        "distance": 751.62
    },
    {
        "name": "Bancroft Cottage Boulders, ON",
        "lat": 45.0464,
        "lon": -77.8463,
        "climbs": 21,
        "country": "Canada",
        "distance": 663.91
    },
    {
        "name": "Bancroft Eagle's Nest, ON",
        "lat": 45.07061,
        "lon": -77.8611,
        "climbs": 11,
        "country": "Canada",
        "distance": 663.99
    },
    {
        "name": "Berlin Wall, ON",
        "lat": 44.44661,
        "lon": -80.30801,
        "climbs": 16,
        "country": "Canada",
        "distance": 946.15
    },
    {
        "name": "Bleasdell Boulder, ON",
        "lat": 44.13008,
        "lon": -77.60173,
        "climbs": 7,
        "country": "Canada",
        "distance": 643.99
    },
    {
        "name": "Bon Echo, ON",
        "lat": 44.8972,
        "lon": -77.2095,
        "climbs": 36,
        "country": "Canada",
        "distance": 635.56
    },
    {
        "name": "Cape Croker, ON",
        "lat": 44.90277,
        "lon": -81.10286,
        "climbs": 14,
        "country": "Canada",
        "distance": 1036.66
    },
    {
        "name": "The Crag Next Door, ON",
        "lat": 43.33804,
        "lon": -79.86583,
        "climbs": 57,
        "country": "Canada",
        "distance": 864.21
    },
    {
        "name": "Devil's Glen, ON",
        "lat": 44.34794,
        "lon": -80.22968,
        "climbs": 165,
        "country": "Canada",
        "distance": 939.11
    },
    {
        "name": "Metcalfe Rock, ON",
        "lat": 44.41833,
        "lon": -80.44133,
        "climbs": 140,
        "country": "Canada",
        "distance": 958.77
    },
    {
        "name": "Old Baldy, ON",
        "lat": 44.39284,
        "lon": -80.52167,
        "climbs": 69,
        "country": "Canada",
        "distance": 948.88
    },
    {
        "name": "Robertson Ridge, ON",
        "lat": 46.7694,
        "lon": -84.3144,
        "climbs": 6,
        "country": "Canada",
        "distance": 1265.12
    },
    {
        "name": "Sunnyside Boulders, ON",
        "lat": 45.35197,
        "lon": -77.57433,
        "climbs": 7,
        "country": "Canada",
        "distance": 626.27
    },
    {
        "name": "TV Tower, ON",
        "lat": 44.94773,
        "lon": -81.12048,
        "climbs": 25,
        "country": "Canada",
        "distance": 1041.85
    },
    {
        "name": "White Bluff, ON",
        "lat": 45.02773,
        "lon": -81.27034,
        "climbs": 27,
        "country": "Canada",
        "distance": 1051.9
    }
]