[
    {
        "name": "La montagne à Coton, QC",
        "lat": 47.5411,
        "lon": -69.81121,
        "climbs": 29,
        "country": "Canada",
        "distance": 940.28
    },
    {
        "name": "La Pocatiere, QC",
        "lat": 47.34334,
        "lon": -70.0242,
        "climbs": 8,
        "country": "Canada",
        "distance": 917.12
    },
    {
        "name": "Mont-Carmel, QC",
        "lat": 47.42554,
        "lon": -69.89976,
        "climbs": 16,
        "country": "Canada",
        "distance": 931.42
    },
    {
        "name": "Saint-Andre-de-Kamouraska, QC",
        "lat": 47.65207,
        "lon": -69.74538,
        "climbs": 131,
        "country": "Canada",
        "distance": 960.26
    },
    {
        "name": "Cap Trinité, QC",
        "lat": 48.30087,
        "lon": -70.33579,
        "climbs": 17,
        "country": "Canada",
        "distance": 1070.65
    },
    {
        "name": "Chicoutimi, QC",
        "lat": 48.42245,
        "lon": -71.06178,
        "climbs": 71,
        "country": "Canada",
        "distance": 1007.64
    },
    {
        "name": "Jonquière, QC",
        "lat": 48.41052,
        "lon": -71.27198,
        "climbs": 49,
        "country": "Canada",
        "distance": 1018.94
    },
    {
        "name": "La Baie, QC",
        "lat": 48.35584,
        "lon": -70.86264,
        "climbs": 11,
        "country": "Canada",
        "distance": 1023.76
    },
    {
        "name": "Le Paradis, QC",
        "lat": 48.20391,
        "lon": -70.15467,
        "climbs": 10,
        "country": "Canada",
        "distance": 1041.8
    },
    {
        "name": "Cap Blanc - Pointe-au-Pic, QC",
        "lat": 47.62587,
        "lon": -70.14125,
        "climbs": 14,
        "country": "Canada",
        "distance": 951.13
    },
    {
        "name": "Hautes-Gorges-de-la-Rivière-Malbaie, QC",
        "lat": 47.85899,
        "lon": -70.42786,
        "climbs": 12,
        "country": "Canada",
        "distance": 969.1
    },
    {
        "name": "Palissades de Charlevoix, QC",
        "lat": 47.89537,
        "lon": -69.9891,
        "climbs": 38,
        "country": "Canada",
        "distance": 992.0
    },
    {
        "name": "Lac Long, QC",
        "lat": 46.81285,
        "lon": -72.10098,
        "climbs": 168,
        "country": "Canada",
        "distance": 762.42
    },
    {
        "name": "St-Alban, QC",
        "lat": 46.7098,
        "lon": -72.07932,
        "climbs": 24,
        "country": "Canada",
        "distance": 748.08
    },
    {
        "name": "Vallée du  Bras-du-Nord, QC",
        "lat": 46.92895,
        "lon": -71.81865,
        "climbs": 62,
        "country": "Canada",
        "distance": 799.49
    },
    {
        "name": "Champlain, QC",
        "lat": 46.74882,
        "lon": -71.29385,
        "climbs": 34,
        "country": "Canada",
        "distance": 794.68
    },
    {
        "name": "Crapaud de mer, QC",
        "lat": 46.74899,
        "lon": -71.3011,
        "climbs": 22,
        "country": "Canada",
        "distance": 791.63
    },
    {
        "name": "Mont Wright, QC",
        "lat": 47.00855,
        "lon": -71.34974,
        "climbs": 75,
        "country": "Canada",
        "distance": 826.81
    },
    {
        "name": "Place Jean-Béliveau - OnSite Urban Boulder, QC",
        "lat": 46.8274,
        "lon": -71.24628,
        "climbs": 18,
        "country": "Canada",
        "distance": 807.21
    },
    {
        "name": "Pylône, QC",
        "lat": 46.75011,
        "lon": -71.29653,
        "climbs": 32,
        "country": "Canada",
        "distance": 795.04
    },
    {
        "name": "Sainte-Catherine de la Jacques Cartier, QC",
        "lat": 46.80698,
        "lon": -71.56026,
        "climbs": 27,
        "country": "Canada",
        "distance": 798.49
    },
    {
        "name": "Val-Bélair (Closed), QC",
        "lat": 46.85118,
        "lon": -71.51071,
        "climbs": 61,
        "country": "Canada",
        "distance": 808.94
    },
    {
        "name": "Vieux-Stoneham (Closed), QC",
        "lat": 47.02722,
        "lon": -71.34756,
        "climbs": 31,
        "country": "Canada",
        "distance": 829.49
    },
    {
        "name": "Parc de l'île Melville, QC",
        "lat": 46.52799,
        "lon": -72.76303,
        "climbs": 19,
        "country": "Canada",
        "distance": 710.24
    },
    {
        "name": "Site d'escalade de Trois-Rives, QC",
        "lat": 47.09538,
        "lon": -72.91848,
        "climbs": 90,
        "country": "Canada",
        "distance": 790.01
    },
    {
        "name": "Lac Larouche, QC",
        "lat": 45.47604,
        "lon": -72.17552,
        "climbs": 28,
        "country": "Canada",
        "distance": 673.99
    },
    {
        "name": "Mont Pinacle, QC",
        "lat": 45.03688,
        "lon": -71.90897,
        "climbs": 50,
        "country": "Canada",
        "distance": 707.13
    },
    {
        "name": "Mount Orford (Pic aux Corbeaux), QC",
        "lat": 45.29387,
        "lon": -72.22846,
        "climbs": 86,
        "country": "Canada",
        "distance": 658.97
    },
    {
        "name": "Olympic Stadium - OnSite Urban Boulders, QC",
        "lat": 45.55452,
        "lon": -73.55348,
        "climbs": 25,
        "country": "Canada",
        "distance": 547.97
    },
    {
        "name": "Parc des Hirondelles - OnSite Urban Boulders Climbing, QC",
        "lat": 45.57587,
        "lon": -73.64494,
        "climbs": 32,
        "country": "Canada",
        "distance": 544.99
    },
    {
        "name": "Île Ste-Hélène, QC",
        "lat": 45.5201,
        "lon": -73.53556,
        "climbs": 45,
        "country": "Canada",
        "distance": 550.94
    },
    {
        "name": "LoneStar, QC",
        "lat": 45.67165,
        "lon": -74.97326,
        "climbs": 19,
        "country": "Canada",
        "distance": 523.66
    },
    {
        "name": "Rocher du Capitaine, QC",
        "lat": 45.66656,
        "lon": -74.96398,
        "climbs": 19,
        "country": "Canada",
        "distance": 527.38
    },
    {
        "name": "Rocher du Capitaine Bouldering, QC",
        "lat": 45.66656,
        "lon": -74.96398,
        "climbs": 9,
        "country": "Canada",
        "distance": 527.38
    },
    {
        "name": "Blocs de la fonderie, QC",
        "lat": 48.26423,
        "lon": -78.98854,
        "climbs": 6,
        "country": "Canada",
        "distance": 651.85
    },
    {
        "name": "Cap des Couleurs, QC",
        "lat": 48.22622,
        "lon": -79.01424,
        "climbs": 21,
        "country": "Canada",
        "distance": 651.25
    },
    {
        "name": "Chìkebana (La Grotte), QC",
        "lat": 47.33764,
        "lon": -79.43063,
        "climbs": 27,
        "country": "Canada",
        "distance": 510.93
    },
    {
        "name": "Guidou, QC",
        "lat": 48.38377,
        "lon": -79.31458,
        "climbs": 61,
        "country": "Canada",
        "distance": 685.7
    },
    {
        "name": "Kékéko, QC",
        "lat": 48.1715,
        "lon": -79.14854,
        "climbs": 69,
        "country": "Canada",
        "distance": 621.46
    },
    {
        "name": "La Griffe, QC",
        "lat": 48.18685,
        "lon": -79.26872,
        "climbs": 6,
        "country": "Canada",
        "distance": 627.81
    },
    {
        "name": "Paroi des 3 Lacs, QC",
        "lat": 48.3416,
        "lon": -78.39911,
        "climbs": 10,
        "country": "Canada",
        "distance": 714.12
    },
    {
        "name": "Baie des Tous Nus, QC",
        "lat": 50.07764,
        "lon": -66.73074,
        "climbs": 7,
        "country": "Canada",
        "distance": 1397.39
    },
    {
        "name": "Chûte de Sault-Au-Mouton, QC",
        "lat": 48.55178,
        "lon": -69.24778,
        "climbs": 5,
        "country": "Canada",
        "distance": 1085.61
    },
    {
        "name": "La Jonction, QC",
        "lat": 49.25114,
        "lon": -68.15965,
        "climbs": 13,
        "country": "Canada",
        "distance": 1220.53
    },
    {
        "name": "Lac Malfait, QC",
        "lat": 49.29854,
        "lon": -68.18193,
        "climbs": 8,
        "country": "Canada",
        "distance": 1227.84
    },
    {
        "name": "Baie au Chêne, QC",
        "lat": 48.05665,
        "lon": -66.66389,
        "climbs": 28,
        "country": "Canada",
        "distance": 1296.35
    },
    {
        "name": "Grand Morne, QC",
        "lat": 46.1342,
        "lon": -71.0999,
        "climbs": 65,
        "country": "Canada",
        "distance": 801.22
    },
    {
        "name": "Saint-Leon De Standon, QC",
        "lat": 46.44771,
        "lon": -70.6049,
        "climbs": 12,
        "country": "Canada",
        "distance": 886.0
    },
    {
        "name": "Les Contreforts, QC",
        "lat": 46.26462,
        "lon": -73.9553,
        "climbs": 89,
        "country": "Canada",
        "distance": 655.74
    },
    {
        "name": "Montagne du Tranchant, QC",
        "lat": 46.2899,
        "lon": -73.85517,
        "climbs": 54,
        "country": "Canada",
        "distance": 650.1
    },
    {
        "name": "Proximus, QC",
        "lat": 46.35495,
        "lon": -73.67154,
        "climbs": 23,
        "country": "Canada",
        "distance": 650.83
    },
    {
        "name": "Saint-Alphonse-Rodriguez, QC",
        "lat": 46.23248,
        "lon": -73.72561,
        "climbs": 178,
        "country": "Canada",
        "distance": 632.46
    },
    {
        "name": "Saint-Côme Centre-Ville, QC",
        "lat": 46.28506,
        "lon": -73.78472,
        "climbs": 33,
        "country": "Canada",
        "distance": 643.7
    },
    {
        "name": "Sérénité, QC",
        "lat": 46.3623,
        "lon": -73.67928,
        "climbs": 27,
        "country": "Canada",
        "distance": 652.01
    },
    {
        "name": "Attitude Montagne, QC",
        "lat": 45.99961,
        "lon": -74.30487,
        "climbs": 46,
        "country": "Canada",
        "distance": 618.84
    },
    {
        "name": "Baldy, QC",
        "lat": 45.97204,
        "lon": -74.13704,
        "climbs": 63,
        "country": "Canada",
        "distance": 603.21
    },
    {
        "name": "Belle neige station de ski, QC",
        "lat": 46.00047,
        "lon": -74.21975,
        "climbs": 19,
        "country": "Canada",
        "distance": 608.14
    },
    {
        "name": "Cap des Pères, QC",
        "lat": 46.20944,
        "lon": -74.48492,
        "climbs": 11,
        "country": "Canada",
        "distance": 649.62
    },
    {
        "name": "Julien-Labedan, QC",
        "lat": 46.16911,
        "lon": -74.42801,
        "climbs": 38,
        "country": "Canada",
        "distance": 638.62
    },
    {
        "name": "Kanata Tremblant, QC",
        "lat": 45.99765,
        "lon": -74.73777,
        "climbs": 26,
        "country": "Canada",
        "distance": 582.08
    },
    {
        "name": "Lac Boisseau, QC",
        "lat": 46.17587,
        "lon": -74.80672,
        "climbs": 39,
        "country": "Canada",
        "distance": 593.26
    },
    {
        "name": "Lac Gervais (Mont La Tuque), QC",
        "lat": 46.27075,
        "lon": -74.68674,
        "climbs": 52,
        "country": "Canada",
        "distance": 615.72
    },
    {
        "name": "Laurentides du Nord, QC",
        "lat": 46.63749,
        "lon": -75.1795,
        "climbs": 23,
        "country": "Canada",
        "distance": 658.96
    },
    {
        "name": "Montagne d'Argent, QC",
        "lat": 46.1271,
        "lon": -74.67974,
        "climbs": 150,
        "country": "Canada",
        "distance": 597.27
    },
    {
        "name": "Parc régional du poisson Blanc, QC",
        "lat": 46.09445,
        "lon": -75.67397,
        "climbs": 58,
        "country": "Canada",
        "distance": 567.26
    },
    {
        "name": "Val-David, QC",
        "lat": 46.028,
        "lon": -74.2002,
        "climbs": 549,
        "country": "Canada",
        "distance": 610.34
    },
    {
        "name": "Weir, QC",
        "lat": 45.94655,
        "lon": -74.53372,
        "climbs": 130,
        "country": "Canada",
        "distance": 563.82
    },
    {
        "name": "Mont Rigaud, QC",
        "lat": 45.4683,
        "lon": -74.33952,
        "climbs": 120,
        "country": "Canada",
        "distance": 507.7
    }
]