[
    {
        "name": "Blue Run Rocks, US",
        "lat": 41.80349,
        "lon": -77.5474,
        "climbs": 29
    },
    {
        "name": "Boone Run, US",
        "lat": 41.67514,
        "lon": -77.07595,
        "climbs": 19
    },
    {
        "name": "Donation Rocks, US",
        "lat": 40.57285,
        "lon": -77.9437,
        "climbs": 41
    },
    {
        "name": "Eversince Area, US",
        "lat": 40.72808,
        "lon": -77.88517,
        "climbs": 11
    },
    {
        "name": "Hunter's Rocks (Rocky Ridge Natural Area), US",
        "lat": 40.5502,
        "lon": -77.8586,
        "climbs": 113
    },
    {
        "name": "Rock Run, US",
        "lat": 41.5085,
        "lon": -76.934,
        "climbs": 38
    },
    {
        "name": "Route 15 Fern Garden, US",
        "lat": 41.63633,
        "lon": -77.11501,
        "climbs": 5
    },
    {
        "name": "Shingletown Gap, US",
        "lat": 40.75183,
        "lon": -77.82027,
        "climbs": 7
    },
    {
        "name": "State Game Lands 12 & 36, US",
        "lat": 41.65384,
        "lon": -76.65636,
        "climbs": 14
    },
    {
        "name": "Sunfish Pond County Park, US",
        "lat": 41.64351,
        "lon": -76.69677,
        "climbs": 24
    },
    {
        "name": "Archbald Pothole State Park, US",
        "lat": 41.51214,
        "lon": -75.57422,
        "climbs": 5
    },
    {
        "name": "Bauer Rock (South Mountain), US",
        "lat": 40.5682,
        "lon": -75.4358,
        "climbs": 58
    },
    {
        "name": "Bruce Lake Bouldering, US",
        "lat": 41.35335,
        "lon": -75.1695,
        "climbs": 18
    },
    {
        "name": "Delaware Water Gap (PA), US",
        "lat": 40.97987,
        "lon": -75.13779,
        "climbs": 83
    },
    {
        "name": "Emmaus Boulders, US",
        "lat": 40.54767,
        "lon": -75.47804,
        "climbs": 33
    },
    {
        "name": "Lehigh Gorge State Park, US",
        "lat": 40.88349,
        "lon": -75.76019,
        "climbs": 20
    },
    {
        "name": "Mocanaqua (aka Shickshinny), US",
        "lat": 41.1472,
        "lon": -76.14462,
        "climbs": 110
    },
    {
        "name": "Nay Aug Park, US",
        "lat": 41.4019,
        "lon": -75.639,
        "climbs": 13
    },
    {
        "name": "Ricketts Glen State Park, US",
        "lat": 41.3354,
        "lon": -76.30144,
        "climbs": 10
    },
    {
        "name": "White Deer Lake Bouldering, US",
        "lat": 41.41127,
        "lon": -75.13259,
        "climbs": 10
    },
    {
        "name": "Beartown Rocks, US",
        "lat": 41.3035,
        "lon": -79.05979,
        "climbs": 28
    },
    {
        "name": "Deer Rock, US",
        "lat": 41.32448,
        "lon": -79.57833,
        "climbs": 11
    },
    {
        "name": "Devil’s Den aka Lion’s Den, US",
        "lat": 41.39084,
        "lon": -78.72947,
        "climbs": 5
    },
    {
        "name": "Eagle Rock Ridge Boulders, US",
        "lat": 41.45756,
        "lon": -79.56766,
        "climbs": 5
    },
    {
        "name": "Kennedy's Mill, US",
        "lat": 40.9918,
        "lon": -80.1844,
        "climbs": 7
    },
    {
        "name": "McConnells Mill State Park, US",
        "lat": 40.9578,
        "lon": -80.1688,
        "climbs": 97
    },
    {
        "name": "Rim Rock, US",
        "lat": 41.8434,
        "lon": -78.9465,
        "climbs": 8
    },
    {
        "name": "Rim Rock Bouldering, US",
        "lat": 41.84407,
        "lon": -78.9458,
        "climbs": 7
    },
    {
        "name": "Asphalt Boulder, US",
        "lat": 40.05778,
        "lon": -77.295,
        "climbs": 7
    },
    {
        "name": "Bilger's Rocks, US",
        "lat": 40.9939,
        "lon": -78.61269,
        "climbs": 47
    },
    {
        "name": "Boxcar Rocks (Chinese Wall), US",
        "lat": 40.5445,
        "lon": -76.5356,
        "climbs": 33
    },
    {
        "name": "Chickies Rock, US",
        "lat": 40.05805,
        "lon": -76.5314,
        "climbs": 59
    },
    {
        "name": "Dauphin Narrows, US",
        "lat": 40.352,
        "lon": -76.9151,
        "climbs": 17
    },
    {
        "name": "Echo Valley, US",
        "lat": 40.59858,
        "lon": -76.41284,
        "climbs": 10
    },
    {
        "name": "Gettysburg, US",
        "lat": 39.78454,
        "lon": -77.24414,
        "climbs": 18
    },
    {
        "name": "Gifford Pinchot State Park, US",
        "lat": 40.08066,
        "lon": -76.87011,
        "climbs": 23
    },
    {
        "name": "Governor Dick Park (aka Mount Gretna), US",
        "lat": 40.23758,
        "lon": -76.45891,
        "climbs": 269
    },
    {
        "name": "Governor Stable, US",
        "lat": 40.13189,
        "lon": -76.69516,
        "climbs": 157
    },
    {
        "name": "Hammond Rocks, US",
        "lat": 40.06812,
        "lon": -77.24859,
        "climbs": 7
    },
    {
        "name": "MDT/Otter Creek to Shanks Mare, US",
        "lat": 39.92992,
        "lon": -76.43743,
        "climbs": 19
    },
    {
        "name": "Pond Bank, US",
        "lat": 39.86593,
        "lon": -77.52477,
        "climbs": 91
    },
    {
        "name": "Rocky Ridge, US",
        "lat": 40.01214,
        "lon": -76.651,
        "climbs": 91
    },
    {
        "name": "Safe Harbor, US",
        "lat": 39.93461,
        "lon": -76.38523,
        "climbs": 413
    },
    {
        "name": "Shaffer Rocks (The Hermitage), US",
        "lat": 39.8123,
        "lon": -77.4822,
        "climbs": 55
    },
    {
        "name": "Susquehanna River, Muddy Run, US",
        "lat": 39.80213,
        "lon": -76.30992,
        "climbs": 6
    },
    {
        "name": "Susquehanna Riverlands State Park, US",
        "lat": 40.05717,
        "lon": -76.63627,
        "climbs": 92
    },
    {
        "name": "Tumbling Run, US",
        "lat": 40.026,
        "lon": -77.3554,
        "climbs": 8
    },
    {
        "name": "Walnut Bottom, US",
        "lat": 40.0641,
        "lon": -77.3715,
        "climbs": 7
    },
    {
        "name": "Whiskey Springs, US",
        "lat": 40.0959,
        "lon": -77.1326,
        "climbs": 24
    },
    {
        "name": "White Rock Acres, US",
        "lat": 40.13197,
        "lon": -77.08831,
        "climbs": 8
    },
    {
        "name": "Woodcock Valley, US",
        "lat": 40.16391,
        "lon": -78.2934,
        "climbs": 9
    },
    {
        "name": "Birdsboro Quarry, US",
        "lat": 40.2539,
        "lon": -75.8139,
        "climbs": 176
    },
    {
        "name": "Crum Woods, US",
        "lat": 39.90688,
        "lon": -75.35714,
        "climbs": 17
    },
    {
        "name": "Downingtown Boulders, US",
        "lat": 39.97735,
        "lon": -75.68242,
        "climbs": 7
    },
    {
        "name": "East Branch Brandywine Creek, US",
        "lat": 40.04135,
        "lon": -75.70738,
        "climbs": 29
    },
    {
        "name": "Eastern State Penitentiary, US",
        "lat": 39.96837,
        "lon": -75.17268,
        "climbs": 5
    },
    {
        "name": "The Edge (Closed), US",
        "lat": 40.43351,
        "lon": -75.07383,
        "climbs": 26
    },
    {
        "name": "Hay Creek Boulders, US",
        "lat": 40.23923,
        "lon": -75.83693,
        "climbs": 22
    },
    {
        "name": "Haycock Mountain (Nockamixon), US",
        "lat": 40.49876,
        "lon": -75.22871,
        "climbs": 266
    },
    {
        "name": "Monocacy Hill Bouldering, US",
        "lat": 40.27812,
        "lon": -75.76182,
        "climbs": 8
    },
    {
        "name": "The Narrows, US",
        "lat": 40.5634,
        "lon": -75.15969,
        "climbs": 17
    },
    {
        "name": "Philly, US",
        "lat": 39.95269,
        "lon": -75.16329,
        "climbs": 232
    },
    {
        "name": "Ralph Stover State Park (High Rocks), US",
        "lat": 40.44089,
        "lon": -75.10068,
        "climbs": 98
    },
    {
        "name": "Smedley Park, US",
        "lat": 39.91984,
        "lon": -75.3616,
        "climbs": 16
    },
    {
        "name": "56 Boulders, US",
        "lat": 40.21749,
        "lon": -78.76057,
        "climbs": 31
    },
    {
        "name": "Adam Fall's Trail, US",
        "lat": 40.16044,
        "lon": -79.23155,
        "climbs": 7
    },
    {
        "name": "Beam Rocks, US",
        "lat": 40.13262,
        "lon": -79.15671,
        "climbs": 47
    },
    {
        "name": "Breakneck, US",
        "lat": 40.03465,
        "lon": -79.54311,
        "climbs": 69
    },
    {
        "name": "Casparis Bouldering (The Ridge) - CLOSED TO CLIMBING, US",
        "lat": 39.97799,
        "lon": -79.57217,
        "climbs": 23
    },
    {
        "name": "Coll's Cove Bouldering  - CLOSED TO CLIMBING, US",
        "lat": 39.93173,
        "lon": -79.54515,
        "climbs": 85
    },
    {
        "name": "Creek Hills (Game Lands 296), US",
        "lat": 40.11206,
        "lon": -79.7042,
        "climbs": 7
    },
    {
        "name": "Ghosttown, US",
        "lat": 40.48268,
        "lon": -79.14071,
        "climbs": 55
    },
    {
        "name": "Harrison Hills Park, US",
        "lat": 40.64633,
        "lon": -79.69613,
        "climbs": 12
    },
    {
        "name": "Jumonville, US",
        "lat": 39.90474,
        "lon": -79.6536,
        "climbs": 29
    },
    {
        "name": "The Knobs (Rob's Knob) - CLOSED TO CLIMBING, US",
        "lat": 39.91881,
        "lon": -79.57302,
        "climbs": 30
    },
    {
        "name": "The Lost Crag - CLOSED TO CLIMBING, US",
        "lat": 39.91958,
        "lon": -79.58048,
        "climbs": 110
    },
    {
        "name": "Ohiopyle State Park, US",
        "lat": 39.8693,
        "lon": -79.4938,
        "climbs": 146
    },
    {
        "name": "Pike Run, US",
        "lat": 40.08044,
        "lon": -79.31847,
        "climbs": 37
    },
    {
        "name": "Pittsburgh, US",
        "lat": 40.44029,
        "lon": -80.01017,
        "climbs": 66
    },
    {
        "name": "Rager Mountain, US",
        "lat": 40.41491,
        "lon": -78.98392,
        "climbs": 5
    },
    {
        "name": "The Vault - CLOSED TO CLIMBING, US",
        "lat": 39.95352,
        "lon": -79.52305,
        "climbs": 16
    },
    {
        "name": "Washington Run Gorge (Perryopolis), US",
        "lat": 40.08874,
        "lon": -79.73033,
        "climbs": 20
    }
]